$GPRMC,183729,A,3907.356,N,12102.482,W,000.0,360.0,080301,015.5,E*6F
$GPRMB,A,,,,,,,,,,,,V*71
$GPGGA,183730,3907.356,N,12102.482,W,1,05,1.6,646.4,M,-24.1,M,,*75
$GPGSA,A,3,02,,,07,,09,24,26,,,,,1.6,1.6,1.0*3D
$GPGSV,2,1,08,02,43,088,38,04,42,145,00,05,11,291,00,07,60,043,35*71
$GPGSV,2,2,08,08,02,145,00,09,46,303,47,24,16,178,32,26,18,231,43*77
$PGRME,22.0,M,52.9,M,51.0,M*14
$GPGLL,3907.360,N,12102.481,W,183730,A*33
$PGRMZ,2062,f,3*2D
$PGRMM,WGS 84*06
$GPBOD,,T,,M,,*47
$GPRTE,1,1,c,0*07
$GPRMC,183731,A,3907.482,N,12102.436,W,000.0,360.0,080301,015.5,E*67
$GPRMB,A,,,,,,,,,,,,V*71


$GPRMC,002454,A,3553.5295,N,13938.6570,E,0.0,43.1,180700,7.1,W,A*3F
$GPRMB,A,,,,,,,,,,,,A,A*0B
$GPGGA,002454,3553.5295,N,13938.6570,E,1,05,2.2,18.3,M,39.0,M,,*7F
$GPGSA,A,3,01,04,07,16,20,,,,,,,,3.6,2.2,2.7*35
$GPGSV,3,1,09,01,38,103,37,02,23,215,00,04,38,297,37,05,00,328,00*70
$GPGSV,3,2,09,07,77,299,47,11,07,087,00,16,74,041,47,20,38,044,43*73
$GPGSV,3,3,09,24,12,282,00*4D
$GPGLL,3553.5295,N,13938.6570,E,002454,A,A*4F
$GPBOD,,T,,M,,*47
$PGRME,8.6,M,9.6,M,12.9,M*15
$PGRMZ,51,f*30
$HCHDG,101.1,,,7.1,W*3C
$GPRTE,1,1,c,*37
$GPRMC,002456,A,3553.5295,N,13938.6570,E,0.0,43.1,180700,7.1,W,A*3D






$GPRMC,023042,A,3907.3837,N,12102.4684,W,0.0,156.1,131102,15.3,E,A*36
$GPRMB,A,,,,,,,,,,,,A,A*0B
$GPGGA,023042,3907.3837,N,12102.4684,W,1,04,2.3,507.3,M,-24.1,M,,*75
$GPGSA,A,3,04,05,,,09,,,24,,,,,2.8,2.3,1.0*36
$GPGSV,3,2,11,09,47,229,42,10,04,157,00,14,00,305,00,24,70,154,33*79
$GPGLL,3907.3837,N,12102.4684,W,023042,A,A*5E
$GPBOD,,T,,M,,*47
$GPVTG,156.1,T,140.9,M,0.0,N,0.0,K*41
$PGRME,8.4,M,23.8,M,25.7,M*2B
$PGRMZ,1735,f*34
$PGRMM,WGS 84*06
$HCHDG,,,,15.3,E*30
$GPRTE,1,1,c,*37
$GPRMC,023044,A,3907.3840,N,12102.4692,W,0.0,156.1,131102,15.3,E,A*37






$GPGSV,3,1,10,02,15,137,31,06,25,102,47,12,63,262,31,17,25,046,34,1*61
$GPGSV,3,2,10,19,46,061,33,24,66,167,40,25,22,261,33,32,25,310,29,1*66
$GPGSV,3,3,10,15,07,195,,22,02,005,,1*6C
$GLGSV,2,1,08,74,69,067,38,66,20,334,22,73,21,099,45,65,23,267,27,1*71
$GLGSV,2,2,08,84,52,115,29,83,30,032,21,85,11,170,28,72,05,229,26,1*73
$GBGSV,3,1,10,33,14,285,24,29,38,057,31,26,85,158,31,24,40,289,24,1*79
$GBGSV,3,2,10,14,10,260,25,13,21,099,40,10,17,075,26,08,26,073,32,1*7C
$GBGSV,3,3,10,05,20,137,31,02,07,113,26,1*75
$GNGSA,A,3,02,06,12,17,19,24,25,32,,,,,0.9,0.6,0.6,1*31
$GNGSA,A,3,65,66,72,73,74,84,85,,,,,,0.9,0.6,0.6,2*3B
$GNGSA,A,3,02,05,08,10,13,14,26,29,,,,,0.9,0.6,0.6,4*3B
$GNVTG,123.4,T,123.4,M,48.8,N,90.4,K,A*34
$GNRMC,095223.00,A,5308.349221,N,02332.104573,E,48.8,123.4,050421,4.4,E,A,V*69
$GNGGA,095223.00,5308.349221,N,02332.104573,E,1,12,0.6,143.5,M,32.0,M,,*7F
$GPGSV,3,1,10,02,15,137,26,06,25,102,47,12,63,262,32,17,25,046,34,1*64
$GPGSV,3,2,10,19,46,061,32,24,66,167,40,25,22,261,37,32,25,310,28,1*62
$GPGSV,3,3,10,15,07,195,,22,02,005,,1*6C
$GLGSV,2,1,08,74,69,067,38,66,20,334,22,73,21,099,44,65,23,267,30,1*76
$GLGSV,2,2,08,84,52,115,30,83,30,032,21,85,11,170,24,72,05,229,26,1*77
$GBGSV,3,1,10,33,14,285,22,29,38,057,33,26,85,158,31,24,40,289,24,1*7D
$GBGSV,3,2,10,14,10,260,27,13,21,099,41,10,17,075,25,08,26,073,32,1*7C
$GBGSV,3,3,10,05,20,137,31,02,07,113,28,1*7B
$GNGSA,A,3,02,06,12,17,19,24,25,32,,,,,0.9,0.6,0.7,1*30
$GNGSA,A,3,65,72,73,74,84,85,,,,,,,0.9,0.6,0.7,2*3A
$GNGSA,A,3,02,05,08,10,13,14,26,29,,,,,0.9,0.6,0.7,4*3A
$GNVTG,124.2,T,124.2,M,49.2,N,91.0,K,A*3A
$GNRMC,095224.00,A,5308.342227,N,02332.124040,E,49.2,124.2,050421,4.4,E,A,V*6E
$GNGGA,095224.00,5308.342227,N,02332.124040,E,1,12,0.6,143.5,M,32.0,M,,*72
$GPGSV,3,1,10,02,15,137,25,06,25,102,48,12,63,262,32,17,25,046,35,1*69
$GPGSV,3,2,10,19,46,061,33,24,66,167,40,25,22,261,38,32,25,310,30,1*65
$GPGSV,3,3,10,15,07,195,,22,02,005,,1*6C
$GLGSV,2,1,08,74,69,067,38,66,20,334,20,73,21,099,44,65,23,267,32,1*76
$GLGSV,2,2,08,84,52,115,30,83,30,032,22,85,11,170,25,72,05,229,26,1*75
$GBGSV,3,1,10,33,14,285,26,29,38,057,31,26,85,158,31,24,40,289,21,1*7E
$GBGSV,3,2,10,14,10,260,27,13,21,099,41,10,17,075,29,08,26,073,33,1*71
$GBGSV,3,3,10,05,20,137,31,02,07,113,28,1*7B
$GNGSA,A,3,02,06,12,17,19,24,25,32,,,,,0.9,0.6,0.7,1*30
$GNGSA,A,3,65,72,73,74,84,85,,,,,,,0.9,0.6,0.7,2*3A
$GNGSA,A,3,02,05,08,10,13,14,26,29,,,,,0.9,0.6,0.7,4*3A
$GNVTG,124.1,T,124.1,M,49.5,N,91.7,K,A*3A
$GNRMC,095225.00,A,5308.335297,N,02332.143415,E,49.5,124.1,050421,4.4,E,A,V*65
$GNGGA,095225.00,5308.335297,N,02332.143415,E,1,12,0.6,142.8,M,32.0,M,,*71
$GPGSV,3,1,10,02,15,137,28,06,25,102,47,12,63,262,34,17,25,046,37,1*6F
$GPGSV,3,2,10,19,46,061,30,24,66,167,40,25,22,261,30,32,25,310,26,1*69
$GPGSV,3,3,10,15,07,195,,22,02,005,,1*6C
$GLGSV,2,1,08,74,69,067,39,66,20,334,20,73,21,099,45,65,23,267,27,1*72
$GLGSV,2,2,08,84,52,115,31,83,30,032,22,85,11,170,22,72,05,229,26,1*73
$GBGSV,3,1,10,33,14,285,26,29,38,057,31,26,85,158,32,24,40,289,24,1*78
$GBGSV,3,2,10,14,10,260,27,13,21,099,41,10,17,075,28,08,26,073,32,1*71
$GBGSV,3,3,10,05,20,137,27,02,07,113,28,1*7C
$GNGSA,A,3,02,06,12,17,19,24,25,32,,,,,0.9,0.7,0.7,1*31
$GNGSA,A,3,65,73,74,84,85,,,,,,,,0.9,0.7,0.7,2*3E
$GNGSA,A,3,02,05,08,10,13,14,26,29,,,,,0.9,0.7,0.7,4*3B
$GNVTG,124.0,T,124.0,M,49.5,N,91.7,K,A*3A
$GNRMC,095226.00,A,5308.328160,N,02332.162978,E,49.5,124.0,050421,4.4,E,A,V*65
$GNGGA,095226.00,5308.328160,N,02332.162978,E,1,12,0.7,142.7,M,32.0,M,,*7E
$GPGSV,3,1,10,02,15,137,30,06,25,102,47,12,63,262,34,17,25,046,35,1*64
$GPGSV,3,2,10,19,46,061,30,24,66,167,41,25,22,261,27,32,25,310,26,1*6E
$GPGSV,3,3,10,15,07,195,,22,02,005,,1*6C